City_ID,City,Lat,Lng,Max Temp,Humidity,Cloudiness,Wind Speed,Country,Date
0,blackmans bay,-43.0167,147.3167,13.62,70,62,4.75,AU,1683688135
1,puerto ayora,-0.7393,-90.3518,25.86,97,19,1.34,EC,1683688137
2,aykhal,66.0,111.5,-7.5,89,100,9.26,RU,1683688138
3,taltal,-25.4,-70.4833,17.67,78,27,2.0,CL,1683688217
4,grytviken,-54.2811,-36.5092,1.17,97,100,0.93,GS,1683688149
5,port-aux-francais,-49.35,70.2167,4.6,90,100,17.57,TF,1683688136
6,atafu village,-8.5421,-172.5159,28.87,77,17,6.44,TK,1683688497
7,yellowknife,62.456,-114.3525,13.09,50,28,4.92,CA,1683688043
8,isafjordur,66.0755,-23.124,3.73,95,100,1.99,IS,1683688482
9,tsiombe,-25.3,45.4833,20.17,91,3,2.44,MG,1683688497
10,imeko,7.45,2.85,24.22,93,83,1.83,NG,1683688498
11,adamstown,-25.066,-130.1015,21.72,59,90,5.59,PN,1683688448
12,crucecita,-28.95,-58.9833,13.04,73,0,2.54,AR,1683688261
13,tiksi,71.6872,128.8694,-8.34,81,83,6.71,RU,1683688498
14,bredasdorp,-34.5322,20.0403,13.43,88,99,1.38,ZA,1683688498
15,blackwater,-23.5833,148.8833,23.0,15,0,4.99,AU,1683688499
16,waitangi,-43.9535,-176.5597,17.12,93,100,5.36,NZ,1683688129
17,dudinka,69.4058,86.1778,-16.13,92,39,2.19,RU,1683688499
18,kalmunai,7.4167,81.8167,27.13,79,100,2.43,LK,1683688499
19,puerto natales,-51.7236,-72.4875,2.34,89,48,1.48,CL,1683688138
20,rabo de peixe,37.8,-25.5833,17.73,94,75,3.09,PT,1683688500
21,papatowai,-46.5619,169.4708,10.35,65,65,4.52,NZ,1683688141
22,uturoa,-16.7333,-151.4333,27.56,75,49,4.57,PF,1683688157
23,sao felix do xingu,-6.6447,-51.995,23.41,87,60,1.16,BR,1683688185
24,hermanus,-34.4187,19.2345,15.45,73,100,3.0,ZA,1683688158
25,port saint john's,-31.6229,29.5448,16.8,86,2,2.59,ZA,1683688248
26,edinburgh of the seven seas,-37.0676,-12.3116,13.3,61,83,9.7,SH,1683688135
27,katsuura,35.1333,140.3,18.33,61,2,5.41,JP,1683688452
28,ust-nera,64.5667,143.2,3.3,44,100,4.43,RU,1683688170
29,acapulco de juarez,16.8634,-99.8901,28.9,79,0,3.6,MX,1683687963
30,namie,37.4833,141.0,23.64,63,0,0.45,JP,1683688503
31,kadnikov,59.5022,40.338,6.66,71,69,1.35,RU,1683688503
32,haiku-pauwela,20.9219,-156.3051,27.01,44,20,8.75,US,1683688176
33,mount isa,-20.7333,139.5,22.5,17,0,8.11,AU,1683688175
34,bethel,41.3712,-73.414,12.05,64,0,3.09,US,1683688137
35,tiko,4.0745,9.3699,25.57,91,57,1.12,CM,1683688506
36,susuman,62.7833,148.1667,6.31,56,47,7.24,RU,1683688193
37,kailua-kona,19.6406,-155.9956,29.98,67,75,9.77,US,1683688507
38,invercargill,-46.4,168.35,8.34,95,51,1.34,NZ,1683687933
39,thompson,55.7435,-97.8558,12.5,72,44,2.6,CA,1683688138
40,camalu,30.85,-116.0667,14.41,80,0,5.36,MX,1683688508
41,jamestown,42.097,-79.2353,10.4,62,0,1.54,US,1683687928
42,yashkul',46.1711,45.3435,10.73,69,61,2.34,RU,1683688509
43,kapa'a,22.0752,-159.319,26.18,72,75,7.72,US,1683688190
44,anadyr,64.75,177.4833,-0.72,80,0,2.0,RU,1683688165
45,st. john's,47.5649,-52.7093,4.98,77,32,3.13,CA,1683688122
46,ilulissat,69.2167,-51.1,-1.99,86,100,3.6,GL,1683688144
47,hawaiian paradise park,19.5933,-154.9731,22.16,94,100,5.14,US,1683688151
48,dinghaicun,26.2847,119.7936,17.22,69,4,4.92,CN,1683688511
49,bikenibeu village,1.3673,173.1241,30.98,74,75,3.09,KI,1683688140
50,las lomitas,-24.7096,-60.593,15.28,64,100,2.11,AR,1683688511
51,lihue,21.9789,-159.3672,25.77,72,75,7.72,US,1683688258
52,una,20.8167,71.0333,32.87,32,43,2.78,IN,1683688512
53,melfi,40.9965,15.6514,13.61,89,99,1.35,IT,1683688512
54,whitehorse,60.7161,-135.0538,10.43,35,100,7.2,CA,1683687973
55,pindushi,62.9152,34.58,6.53,72,77,1.55,RU,1683688513
56,shagamu,6.8432,3.6478,25.33,92,97,1.41,NG,1683688513
57,kharkhorin,47.1975,102.8238,11.52,29,89,3.15,MN,1683688514
58,tanggu,39.0211,117.6469,24.98,28,100,1.86,CN,1683688514
59,tocopilla,-22.092,-70.1979,20.73,68,16,3.65,CL,1683688314
60,tamanrasset,22.785,5.5228,16.95,19,66,1.03,DZ,1683688515
61,talnakh,69.4865,88.3972,-16.87,94,86,3.04,RU,1683688170
62,iqaluit,63.7506,-68.5145,-12.61,91,54,1.74,CA,1683688150
63,hobyo,5.3505,48.5268,26.99,79,100,7.33,SO,1683688516
64,nasielsk,52.5889,20.8055,8.26,72,0,4.12,PL,1683688516
65,malango,-2.9627,119.9001,28.09,62,62,1.37,ID,1683688516
66,launceston,-41.45,147.1667,16.45,61,98,1.34,AU,1683688517
67,keflavik,64.0049,-22.5624,8.24,100,75,1.54,IS,1683688199
68,port alfred,-33.5906,26.891,16.69,76,2,3.77,ZA,1683688165
69,qaqortoq,60.7167,-46.0333,1.93,87,100,2.77,GL,1683688164
70,westport,41.1415,-73.3579,12.75,67,0,2.68,US,1683688255
71,malangawa,26.8568,85.5581,34.01,13,0,2.52,NP,1683688518
72,murashi,59.3999,48.9615,5.84,74,95,2.07,RU,1683688518
73,gaalkacyo,6.7697,47.4308,26.56,70,100,6.02,SO,1683688519
74,margaret river,-33.95,115.0667,14.99,65,100,12.32,AU,1683688142
75,badger,64.8,-147.5333,13.14,32,40,1.54,US,1683688168
76,smithers,54.7804,-127.1743,16.12,53,4,1.22,CA,1683688237
77,petropavlovsk-kamchatsky,53.0452,158.6483,9.33,40,75,3.0,RU,1683688140
78,santa terezinha,-29.9002,-50.0904,16.19,81,0,2.81,BR,1683688520
79,college,64.8569,-147.8028,13.18,33,75,1.54,US,1683688178
80,minas de marcona,-15.2119,-75.1103,15.25,86,59,4.26,PE,1683688173
81,turkmenbasy,40.0222,52.9552,14.43,77,75,5.14,TM,1683688521
82,shevchenko,48.5,35.0,6.86,73,100,2.28,UA,1683688521
83,bhimunipatnam,17.8833,83.4333,30.73,63,100,1.55,IN,1683688521
84,brisas de zicatela,15.8369,-97.0419,30.29,62,40,1.54,MX,1683688244
85,wailua homesteads,22.0669,-159.378,25.44,73,75,7.72,US,1683688160
86,nachingwea,-10.3833,38.7667,17.65,95,23,0.81,TZ,1683688522
87,west island,-12.1568,96.8225,27.66,82,84,9.22,CC,1683688151
88,maintirano,-18.0667,44.0167,23.61,83,49,3.96,MG,1683688245
89,purna,19.1833,77.05,31.94,41,91,4.18,IN,1683688523
90,port lincoln,-34.7333,135.8667,16.54,66,21,5.04,AU,1683688194
91,aasiaat,68.7098,-52.8699,-7.9,85,19,0.97,GL,1683688154
92,bamboo flat,11.7,92.7167,29.65,76,98,9.88,IN,1683688233
93,raisio,60.4859,22.169,5.46,87,0,2.24,FI,1683688524
94,varna,43.2167,27.9167,6.6,95,98,1.54,BG,1683688524
95,kerikeri,-35.2268,173.9474,17.73,80,40,1.79,NZ,1683688196
96,glace bay,46.1969,-59.957,2.66,81,45,4.02,CA,1683688525
97,georgetown,5.4112,100.3354,32.96,74,20,1.54,MY,1683687981
98,bandon,51.7469,-8.7425,10.77,80,100,5.82,IE,1683688525
99,newman,37.3138,-121.0208,19.19,39,85,2.68,US,1683688526
100,ribeira grande,38.5167,-28.7,18.21,97,100,7.6,PT,1683688161
101,tazovsky,67.4667,78.7,-7.53,93,100,5.95,RU,1683688153
102,grass valley,39.2191,-121.0611,14.26,68,0,0.45,US,1683688527
103,dawesville,30.9224,-84.0091,26.23,88,0,2.57,US,1683688527
104,lamarque,-39.423,-65.7021,12.22,54,2,3.67,AR,1683688527
105,namibe,-15.1961,12.1522,23.44,83,2,2.0,AO,1683688155
106,punta del este,-34.9667,-54.95,14.37,86,75,3.13,UY,1683688272
107,beyneu,45.3167,55.2,19.75,54,38,5.53,KZ,1683688528
108,el calafate,-50.3408,-72.2768,4.26,84,80,1.51,AR,1683688528
109,bayanhongor,46.7167,100.1167,4.31,47,86,2.83,MN,1683688528
110,lompoc,34.6391,-120.4579,14.32,82,20,4.63,US,1683688163
111,hadibu,12.65,54.0333,27.8,69,99,0.45,YE,1683688221
112,whangarei,-35.7317,174.3239,15.56,71,80,5.53,NZ,1683688382
113,worcester,42.3334,-71.8328,9.18,71,0,3.6,US,1683687998
114,huesca,42.1362,-0.4087,11.14,63,0,6.17,ES,1683688530
115,gulf shores,30.246,-87.7008,23.92,78,0,0.45,US,1683688262
116,fergus falls,46.283,-96.0776,13.99,88,75,5.66,US,1683688531
117,tripoli,32.8752,13.1875,17.59,85,51,10.11,LY,1683688531
118,labytnangi,66.6572,66.4183,-1.62,86,97,0.49,RU,1683688196
119,pisco,-13.7,-76.2167,20.03,83,75,4.63,PE,1683687849
120,lewistown,40.5992,-77.5714,12.41,54,0,0.0,US,1683688532
121,freetown,8.484,-13.2299,24.62,91,99,4.21,SL,1683688528
122,albany,42.6001,-73.9662,10.23,70,4,2.01,US,1683687927
123,tirumullaivasal,11.2333,79.8333,29.97,67,100,2.1,IN,1683688533
124,sitka,57.0531,-135.33,9.94,66,0,1.54,US,1683688533
125,arnprior,45.4334,-76.3494,10.19,69,1,0.67,CA,1683688479
126,itatiaia,-22.4961,-44.5633,19.95,99,100,0.61,BR,1683688533
127,ebon,4.582,168.6964,28.45,80,68,6.1,MH,1683688534
128,murzuq,25.9155,13.9184,17.54,48,0,5.86,LY,1683688534
129,mudbidri,13.0833,74.9833,28.79,79,20,2.06,IN,1683688535
130,eaglehawk,-36.7333,144.25,16.98,54,0,2.47,AU,1683688535
131,khandyga,62.6667,135.6,6.39,38,83,3.84,RU,1683688535
132,chibougamau,49.9168,-74.3659,3.38,56,76,2.37,CA,1683688187
133,magadi,12.9667,77.2333,25.23,69,100,1.57,IN,1683688536
134,carutapera,-1.195,-46.02,24.74,92,94,2.28,BR,1683687942
135,kodiak,57.79,-152.4072,5.73,87,100,9.26,US,1683688154
136,merritt,50.1123,-120.7942,12.96,68,97,0.89,CA,1683688537
137,ancud,-41.8697,-73.8203,10.8,95,87,2.02,CL,1683688148
138,guiren,33.6697,118.1889,17.1,48,100,0.79,CN,1683688537
139,saipan,15.1355,145.701,31.39,100,40,6.17,MP,1683688188
140,cascais,38.6979,-9.4215,16.08,81,69,10.73,PT,1683688538
141,hammerfest,70.6634,23.6821,7.25,70,40,2.06,NO,1683688260
142,utrik,11.2278,169.8474,27.45,78,99,6.89,MH,1683688169
143,constantia,44.1833,28.65,6.5,78,7,2.8,RO,1683688194
144,kontagora,10.3999,5.4695,27.65,45,100,2.07,NG,1683688538
145,diego de almagro,-26.3667,-70.05,17.02,47,0,0.95,CL,1683688289
146,hithadhoo,-0.6,73.0833,28.02,73,79,3.81,MV,1683688146
147,polyarnyy,69.1989,33.4478,2.07,99,100,3.99,RU,1683688260
148,rinconada,19.35,-96.5167,27.36,54,100,0.65,MX,1683688539
149,tanabe,33.7333,135.3667,22.13,44,99,5.32,JP,1683688539
150,weno,7.4515,151.8468,28.97,79,100,4.12,FM,1683688189
151,alice springs,-23.7,133.8833,16.73,28,0,7.15,AU,1683688163
152,floro,61.5996,5.0328,11.24,87,100,1.54,NO,1683688247
153,aras-asan,8.8908,126.3033,30.15,67,10,3.07,PH,1683688540
154,usinsk,65.9939,57.5281,-0.32,91,100,6.15,RU,1683688220
155,maine soroa,13.2114,12.0241,27.85,9,100,3.61,NE,1683688540
156,arraial do cabo,-22.9661,-42.0278,22.92,94,20,4.12,BR,1683688173
157,olonkinbyen,70.9221,-8.7187,1.86,100,100,4.22,SJ,1683688144
158,dingzhou,38.5131,114.9956,25.9,16,100,3.35,CN,1683688541
159,nuku'alofa,-21.1333,-175.2,26.48,78,0,2.81,TO,1683688199
160,fale old settlement,-9.3852,-171.2468,29.05,76,78,6.79,TK,1683688211
161,nova vicosa,-17.8919,-39.3719,23.58,78,74,2.68,BR,1683688214
162,al badari,26.9926,31.4155,20.82,38,0,1.97,EG,1683688542
163,punta arenas,-53.15,-70.9167,-0.94,86,0,1.54,CL,1683688140
164,ban nam yuen,9.8769,98.8659,30.18,70,100,0.64,TH,1683688543
165,vorgashor,67.5833,63.95,-2.88,96,100,0.48,RU,1683688180
166,la passe,45.5549,-0.8967,12.77,63,94,7.09,FR,1683688239
167,abaza,52.655,90.0928,15.83,63,100,3.07,RU,1683688543
168,iskateley,67.6803,53.1512,-1.28,89,99,4.64,RU,1683688193
169,terebovlya,49.3019,25.71,2.4,85,7,2.68,UA,1683688544
170,horta,38.5333,-28.6333,17.79,97,99,7.6,PT,1683688544
171,puerto deseado,-47.7503,-65.8938,7.14,68,65,2.18,AR,1683688167
172,san francisco ixhuatan,16.3569,-94.4825,29.35,73,84,2.32,MX,1683688544
173,nemuro,43.3236,145.575,7.14,92,99,8.19,JP,1683688180
174,nantucket,41.2835,-70.0995,10.03,76,0,3.09,US,1683688177
175,guerrero negro,27.9769,-114.0611,15.03,82,0,9.02,MX,1683688179
176,kristiansund,63.1115,7.732,12.36,54,100,1.54,NO,1683688545
177,stanley,54.868,-1.6985,8.19,94,6,2.57,GB,1683688185
178,dryden,49.7833,-92.7503,13.16,71,100,2.06,CA,1683687886
179,pangoa,-12.1167,-73.0,20.19,94,100,0.97,PE,1683688546
180,tromso,69.6496,18.957,5.21,87,75,0.0,NO,1683688194
181,avarua,-21.2078,-159.775,25.03,83,75,7.2,CK,1683688155
182,cabo san lucas,22.8909,-109.9124,28.17,22,20,3.6,MX,1683688401
183,san andres,12.5847,-81.7006,28.01,83,75,5.14,CO,1683688547
184,jabor,5.921,169.6434,27.84,81,100,5.6,MH,1683688547
185,quellon,-43.1167,-73.6167,12.14,100,100,1.03,CL,1683688196
186,kukuna,9.4,-12.6667,26.07,80,90,1.19,SL,1683688547
187,port elizabeth,-33.918,25.5701,13.51,99,5,0.45,ZA,1683688189
188,hamilton,39.1834,-84.5333,15.68,65,0,3.6,US,1683688011
189,at taj,24.2049,23.2857,22.75,14,12,4.35,LY,1683688156
190,hidden valley,39.1623,-84.843,15.48,63,0,1.54,US,1683688548
191,saraktash,51.7866,51.7866,8.46,61,49,6.09,RU,1683688191
192,happy valley-goose bay,53.3168,-60.3315,-1.2,71,100,7.05,CA,1683688200
193,rampur,28.8167,79.0333,24.28,16,0,4.46,IN,1683688548
194,yangambi,0.8102,24.4336,20.34,99,100,0.51,CD,1683688549
195,oxapampa,-10.5775,-75.4017,14.37,97,100,1.08,PE,1683688549
196,pampierstad,-27.7832,24.6877,13.05,59,0,1.64,ZA,1683688549
197,klyuchi,52.2667,79.1667,13.77,32,94,4.19,RU,1683688146
198,zhigalovo,54.8097,105.1578,20.62,33,98,2.64,RU,1683688550
199,rio grande,-32.035,-52.0986,10.53,80,23,3.73,BR,1683688550
200,vovchans'k,50.3003,36.9467,6.67,73,100,2.58,UA,1683688550
201,bilibino,68.0546,166.4372,-2.51,80,100,1.84,RU,1683688147
202,buka,40.8108,69.1986,23.74,24,3,0.88,UZ,1683688550
203,urangan,-25.3,152.9,21.26,66,18,8.91,AU,1683688551
204,alofi,-19.0595,-169.9187,27.94,74,40,4.12,NU,1683688237
205,nema,57.5067,50.5011,6.9,67,9,1.65,RU,1683688489
206,rabat,33.9911,-6.8401,18.36,96,21,1.54,MA,1683688256
207,hirara,24.8,125.2833,25.92,65,20,4.63,JP,1683688552
208,broome,42.2506,-75.833,7.98,72,0,0.89,US,1683688552
209,kone,-21.0595,164.8658,25.02,50,99,4.17,NC,1683688192
210,crane,31.3974,-102.3501,23.7,51,50,8.34,US,1683688145
211,trinidad,-14.8333,-64.9,18.44,89,76,1.15,BO,1683688175
212,biltine,14.5333,20.9167,31.83,17,95,1.54,TD,1683688553
213,borovskoy,53.8,64.15,8.26,35,100,3.89,KZ,1683688553
214,brookings,44.3114,-96.7984,19.54,72,75,6.17,US,1683688553
215,mana,5.6592,-53.7767,25.72,84,90,4.85,GF,1683688553
216,kavarna,43.4333,28.3333,5.15,87,100,3.73,BG,1683688553
217,afaahiti,-17.75,-149.2833,27.81,84,59,6.73,PF,1683688142
218,sombrerete,23.6333,-103.65,15.28,29,5,5.13,MX,1683688554
219,tralee,52.2704,-9.7026,10.32,91,99,6.87,IE,1683688554
220,udachny,66.4167,112.4,-4.75,67,100,8.32,RU,1683687907
221,nagqu,31.5,92.0,0.42,57,100,6.96,CN,1683688213
222,yuzhno-kurilsk,44.0306,145.8556,5.94,97,100,4.1,RU,1683688196
223,port-vila,-17.7338,168.3219,27.78,65,40,4.12,VU,1683688157
224,hassi messaoud,31.6804,6.0729,20.7,40,5,2.91,DZ,1683688453
225,castillos,-34.1667,-53.8333,11.11,86,86,2.69,UY,1683688186
226,port mathurin,-19.6833,63.4167,25.38,74,5,5.7,MU,1683688155
227,tonkino,57.3726,46.4629,6.43,68,9,1.72,RU,1683688556
228,erattupetta,9.7,76.7833,29.63,81,100,0.74,IN,1683688556
229,carnot,4.9409,15.8665,20.8,94,100,0.36,CF,1683688556
230,suomussalmi,64.8869,28.9078,2.28,100,100,1.69,FI,1683688556
231,mombetsu,44.3525,143.3525,9.01,87,75,2.57,JP,1683688556
232,touros,-5.1989,-35.4608,25.44,87,20,4.61,BR,1683688557
233,argo,37.6333,22.7333,16.55,87,97,2.42,GR,1683688557
234,mmabatho,-25.85,25.6333,7.98,87,0,1.03,ZA,1683688557
235,kyaikto,17.3,97.0167,32.33,59,94,3.71,MM,1683688557
236,berdigestyakh,62.0989,126.6992,7.92,91,69,5.18,RU,1683688185
237,mizdah,31.4451,12.9801,14.13,78,74,11.36,LY,1683688558
238,puerto maldonado,-12.6,-69.1833,20.9,94,100,1.12,PE,1683688558
239,codrington,-38.2667,141.9667,15.09,56,100,1.98,AU,1683688558
240,quepos,9.4236,-84.1652,27.58,77,67,0.91,CR,1683688153
241,maitum,6.0392,124.4986,30.26,69,100,2.59,PH,1683688559
242,tura,25.5198,90.2201,31.9,34,1,2.98,IN,1683688189
243,hami,42.8,93.45,20.57,22,10,5.2,CN,1683688142
244,petersburg,37.2279,-77.4019,15.11,84,0,0.0,US,1683688560
245,praia da vitoria,38.7333,-27.0667,18.2,98,47,7.02,PT,1683688499
246,bahia honda,22.9036,-83.1592,25.0,83,74,3.55,CU,1683688560
247,meadow lakes,61.6247,-149.6011,10.76,51,40,4.12,US,1683688560
248,chinde,26.8418,88.0763,25.17,27,0,2.29,NP,1683688227
249,placido de castro,-10.3353,-67.1856,20.8,99,100,1.17,BR,1683688561
250,concepcion,-36.827,-73.0498,10.89,87,100,3.09,CL,1683688319
251,turpan,42.9333,89.1667,25.96,17,0,1.3,CN,1683688561
252,naze,28.3667,129.4833,20.47,60,1,6.88,JP,1683688247
253,basco,20.4487,121.9702,24.9,70,87,7.5,PH,1683688242
254,pauini,-7.7136,-66.9764,21.35,95,100,0.86,BR,1683688562
255,komsomol'skiy,43.9783,46.6985,13.63,74,9,2.55,RU,1683688562
256,praya,14.9215,-23.5087,22.3,78,20,4.12,CV,1683688562
257,palmer,42.1584,-72.3287,9.78,59,40,0.0,US,1683688563
258,mejit,10.2753,170.8646,27.51,82,99,7.58,MH,1683688563
259,yomju-up,39.8933,124.5981,20.08,35,100,2.89,KP,1683688563
260,east london,-33.0153,27.9116,16.63,75,2,4.17,ZA,1683688232
261,baidoa,3.1138,43.6498,21.06,97,60,4.5,SO,1683688563
262,rudnyy,52.9594,63.1206,9.13,75,100,4.11,KZ,1683688564
263,kindu,-2.95,25.95,20.76,99,100,0.03,CD,1683688564
264,fort mcmurray,56.7268,-111.381,15.09,67,97,0.82,CA,1683688174
265,pita,10.8333,-12.5833,24.2,73,100,1.19,GN,1683688564
266,kingston,17.997,-76.7936,26.25,85,94,0.45,JM,1683687945
267,cooma,-36.2333,149.1333,13.04,52,0,1.99,AU,1683688261
268,san-pedro,4.7485,-6.6363,26.65,88,100,1.67,CI,1683688162
269,belle fourche,44.6714,-103.8522,20.18,37,58,1.62,US,1683688566
270,gulf breeze,30.3571,-87.1639,24.41,92,0,0.0,US,1683688566
271,port augusta,-32.5,137.7667,18.65,43,0,0.56,AU,1683688567
272,shenjiamen,29.9576,122.298,17.06,56,84,2.8,CN,1683688567
273,camana,-16.6228,-72.7111,19.86,85,28,3.1,PE,1683688567
274,san antonio de pale,-1.4014,5.6325,27.99,81,31,4.05,GQ,1683688162
275,flekkefjord,58.2971,6.6607,9.01,93,100,6.66,NO,1683688568
276,geraldton,-28.7667,114.6,22.35,58,20,5.85,AU,1683688139
277,ubon ratchathani,15.1667,105.1667,27.94,54,86,1.46,TH,1683688568
278,ushuaia,-54.8,-68.3,1.81,69,0,2.06,AR,1683688136
279,kavieng,-2.5744,150.7967,29.37,70,93,1.0,PG,1683688236
280,floresta,-8.6011,-38.5686,22.69,84,94,3.03,BR,1683688569
281,nar'yan-mar,67.6713,53.087,-1.25,88,99,4.66,RU,1683688569
282,queenstown,-31.8976,26.8753,8.19,67,1,0.99,ZA,1683688253
283,west plains,36.7281,-91.8524,21.46,88,0,2.06,US,1683688569
284,chabahar,25.2919,60.643,29.66,57,0,2.46,IR,1683688236
285,tolanaro,-25.0319,46.9987,20.74,93,9,3.83,MG,1683688254
286,hotan,37.0997,79.9269,18.79,10,16,2.16,CN,1683688570
287,terbanggi besar,-4.8667,105.2333,30.13,69,76,2.61,ID,1683688230
288,pacific grove,36.6177,-121.9166,15.62,83,75,3.6,US,1683687896
289,vila velha,-20.3297,-40.2925,22.19,97,0,0.0,BR,1683688125
290,inarajan village,13.2736,144.7484,31.54,92,49,4.73,GU,1683688571
291,wanning,18.8003,110.3967,28.04,84,68,3.44,CN,1683688571
292,aranda de duero,41.6704,-3.6892,7.36,91,85,2.6,ES,1683688571
293,prince rupert,54.3161,-130.3201,10.89,69,93,1.16,CA,1683688238
294,urumqi,43.801,87.6005,21.53,17,0,2.0,CN,1683688573
295,oranjemund,-28.55,16.4333,15.85,63,14,0.54,NA,1683688190
296,debila,33.5167,6.95,19.04,55,0,2.57,DZ,1683688573
297,diapaga,12.0708,1.7889,31.03,32,32,2.77,BF,1683688573
298,mount pearl,47.5166,-52.7813,4.52,79,75,15.95,CA,1683687882
299,road town,18.4167,-64.6167,28.05,76,87,7.9,VG,1683688499
300,tangalle,6.024,80.7911,27.09,80,90,5.16,LK,1683688244
301,bonthe,7.5264,-12.505,23.35,91,100,3.61,SL,1683688574
302,kangding,30.0513,101.9603,9.02,87,90,2.43,CN,1683688396
303,remire-montjoly,4.9167,-52.2667,25.02,94,75,3.09,GF,1683688164
304,ponta delgada,37.7333,-25.6667,18.4,94,75,3.09,PT,1683688199
305,kukawa,12.9234,13.5606,28.3,21,81,3.22,NG,1683688575
306,miles city,46.4083,-105.8406,16.54,51,0,3.6,US,1683688452
307,tuy hoa,13.0833,109.3,31.03,63,93,2.39,VN,1683688575
308,suva,-18.1416,178.4415,27.71,69,75,2.57,FJ,1683688576
309,fuling,29.7022,107.3919,16.62,95,100,0.78,CN,1683688576
310,karratha,-20.7377,116.8463,27.11,19,81,8.14,AU,1683688251
311,kiunga,-6.1219,141.2906,28.2,80,98,0.38,PG,1683688576
312,seaside,36.6111,-121.8516,15.89,83,75,3.6,US,1683688520
313,draganesti-olt,44.1667,24.5333,5.72,95,56,4.22,RO,1683688577
314,gangapur,26.4833,76.7167,31.75,13,0,3.21,IN,1683688577
315,okahandja,-21.9833,16.9167,16.33,31,0,3.19,NA,1683688577
316,dunedin,-45.8742,170.5036,11.56,69,100,0.89,NZ,1683688208
317,new norfolk,-42.7826,147.0587,14.28,61,91,0.89,AU,1683688218
318,egilsstadir,65.2653,-14.3948,5.95,93,100,2.06,IS,1683688223
319,jianshui,23.6363,102.8264,27.87,45,40,3.25,CN,1683688578
320,okhotsk,59.3833,143.3,6.03,71,14,2.89,RU,1683688230
321,novyy urengoy,66.0833,76.6333,0.04,99,100,2.33,RU,1683688438
322,jakiri,6.1,10.65,16.01,92,100,0.32,CM,1683688579
323,longyearbyen,78.2186,15.6401,-2.09,74,75,5.14,SJ,1683688171
324,paita,-5.0892,-81.1144,25.05,76,0,6.1,PE,1683688579
325,willowmore,-33.2926,23.4895,11.56,56,75,1.1,ZA,1683688579
326,muisne,0.6,-80.0333,26.6,87,100,2.51,EC,1683688461
327,zelenogorsk,56.1147,94.5861,9.28,50,89,2.03,RU,1683688580
328,labrador city,52.9463,-66.9114,-1.05,47,100,4.12,CA,1683688580
329,maumere,-8.6199,122.2111,29.13,73,36,1.36,ID,1683688582
330,isangel,-19.55,169.2667,28.06,78,75,3.09,VU,1683688582
331,kirsanov,52.6549,42.7224,5.75,72,99,3.34,RU,1683688582
332,catabola,-12.15,17.2833,11.99,62,0,1.34,AO,1683688582
333,princeville,45.7668,-61.2985,3.06,82,0,4.63,CA,1683688583
334,akureyri,65.6835,-18.0878,4.96,93,100,2.06,IS,1683688583
335,itanhandu,-22.2958,-44.9347,17.06,96,100,0.87,BR,1683688583
336,jiwani,25.05,61.7417,28.54,80,1,5.37,PK,1683688583
337,petawawa,45.9001,-77.3328,6.55,65,0,1.35,CA,1683688584
338,jam sahib,26.2958,68.6292,29.01,8,11,2.52,PK,1683688584
339,ritchie,-29.038,24.6028,13.56,53,0,1.69,ZA,1683688584
340,papao,-17.75,-149.55,28.7,83,48,4.74,PF,1683688465
341,arauca,7.0847,-70.7591,24.0,100,100,0.51,CO,1683688585
342,ouesso,1.6136,16.0517,20.83,99,100,0.49,CG,1683688257
343,urengoy,65.9667,78.3667,0.11,99,100,2.42,RU,1683688585
344,fortuna,40.5982,-124.1573,12.18,81,0,0.45,US,1683688191
345,tsetserleg,47.475,101.4542,10.17,31,19,6.32,MN,1683688585
346,santo antonio da platina,-23.295,-50.0772,19.47,96,100,1.67,BR,1683688586
347,muroto-misakicho,33.2833,134.15,17.78,65,100,1.76,JP,1683688587
348,muynoq,43.7683,59.0214,24.77,17,98,5.51,UZ,1683688587
349,hilo,19.7297,-155.09,26.27,85,100,5.14,US,1683687929
350,cova figueira,14.8905,-24.2934,20.37,82,1,5.25,CV,1683688580
351,arrifes,37.7667,-25.7,17.14,94,75,3.09,PT,1683688588
352,talakan,50.3167,130.3667,8.66,80,100,0.88,RU,1683688588
353,luderitz,-26.6481,15.1594,16.12,61,100,1.37,NA,1683688176
354,altai,46.3722,96.2583,2.53,68,37,5.92,MN,1683688588
355,fauske,67.2588,15.3918,11.54,77,99,2.89,NO,1683688589
356,sarandi grande,-33.7333,-56.3333,11.93,68,100,2.09,UY,1683688589
357,lagoa,39.05,-27.9833,16.89,91,69,4.53,PT,1683688444
358,yakeshi,49.2833,120.7333,15.66,25,0,2.44,CN,1683688589
359,kargopol',61.5071,38.9456,6.12,67,100,1.81,RU,1683688589
360,saint-francois,46.4154,3.9054,9.26,95,92,4.56,FR,1683688590
361,al artawiyah,26.5053,45.3444,23.99,20,100,4.83,SA,1683688590
362,tevriz,57.509,72.4042,7.89,29,5,2.16,RU,1683688590
363,kuraymah,18.55,31.85,23.65,16,40,5.05,SD,1683688590
364,gadzhiyevo,69.2551,33.3362,1.7,99,100,3.61,RU,1683688591
365,south hedland,-20.4089,118.5983,27.43,19,43,7.41,AU,1683688591
366,yatou,37.15,122.3833,21.29,28,100,1.99,CN,1683688189
367,kruisfontein,-34.0033,24.7314,13.47,76,68,2.38,ZA,1683688165
368,tabou,4.423,-7.3528,27.24,81,100,1.88,CI,1683688186
369,talara,-4.5772,-81.2719,25.19,80,5,6.11,PE,1683688233
370,novodvinsk,64.4165,40.8122,3.75,88,96,1.56,RU,1683688592
371,doylestown,40.3101,-75.1299,14.73,60,0,2.06,US,1683688592
372,igarka,67.4667,86.5833,-10.24,82,67,2.57,RU,1683688187
373,tofol,5.3248,163.0078,24.88,94,100,3.09,FM,1683688246
374,saint-pierre,-21.3393,55.4781,22.54,68,0,2.57,RE,1683688236
375,pak phanang,8.3511,100.202,34.46,67,100,1.54,TH,1683688593
376,mapimi,25.8167,-103.85,24.5,9,55,2.45,MX,1683688593
377,rongelap,11.1635,166.8941,27.23,83,86,7.4,MH,1683688593
378,n'zeto,-7.2312,12.8666,24.97,90,0,2.35,AO,1683688594
379,mhamid,29.82,-5.72,25.46,16,0,0.44,MA,1683688595
380,aketi,2.7388,23.7833,20.52,96,100,0.38,CD,1683688595
381,kamen'-na-obi,53.7884,81.3423,12.79,33,87,2.81,RU,1683688595
382,dwarka,22.2394,68.9678,29.04,70,0,5.5,IN,1683688596
383,kolokani,13.5728,-8.0339,28.22,37,84,3.38,ML,1683688596
384,bubaque,11.2833,-15.8333,26.84,76,100,6.11,GW,1683688217
385,kupang,-10.1667,123.5833,32.32,66,20,8.75,ID,1683688226
386,kaoma,-14.7833,24.8,11.86,60,0,2.42,ZM,1683688596
387,jonesboro,35.8423,-90.7043,24.88,67,0,5.36,US,1683688324
388,salinas,36.6777,-121.6555,15.79,80,100,4.63,US,1683688597
389,toliara,-23.35,43.6667,22.27,70,0,2.11,MG,1683688597
390,madalena,41.2162,-8.3345,13.03,83,100,1.5,PT,1683688597
391,iuna,-20.3458,-41.5358,18.1,98,86,0.25,BR,1683688598
392,badagry,6.4167,2.8833,27.56,84,96,4.39,NG,1683688598
393,tindouf,27.6711,-8.1474,30.25,13,0,3.09,DZ,1683688598
394,bondoukou,8.0333,-2.8,24.16,77,100,1.98,CI,1683688598
395,nadi,-17.8,177.4167,29.0,65,20,4.63,FJ,1683688246
396,salina cruz,16.1667,-95.2,29.71,74,86,3.54,MX,1683688599
397,saint-philippe,-21.3585,55.7679,21.77,83,46,4.04,RE,1683688243
398,new amsterdam,6.25,-57.5167,23.84,91,100,1.68,GY,1683688599
399,yandev,7.3667,9.05,26.21,78,94,4.6,NG,1683688599
400,howrah,22.5892,88.3103,33.0,66,40,3.6,IN,1683688192
401,ulsteinvik,62.3432,5.8487,12.5,73,100,0.89,NO,1683688600
402,san pedro pochutla,15.7333,-96.4667,28.73,74,28,3.73,MX,1683688186
403,rincon de romos,22.2333,-102.3,22.05,21,17,9.95,MX,1683688600
404,chonchi,-42.6128,-73.8092,12.56,98,99,0.6,CL,1683688183
405,ladario,-19.0047,-57.6017,20.93,94,72,0.92,BR,1683688601
406,ola,59.5833,151.2833,10.08,81,44,3.49,RU,1683688172
407,nogliki,51.8333,143.1667,1.44,91,100,4.76,RU,1683688601
408,manta,-0.95,-80.7333,26.88,83,40,3.09,EC,1683688601
409,gemena,3.25,19.7667,20.72,100,100,0.58,CD,1683688601
410,znamenskoye,57.1281,73.8282,7.54,28,2,2.25,RU,1683688602
411,qarazhal,48.0078,70.7903,22.32,20,96,5.48,KZ,1683688602
412,sao jose da coroa grande,-8.8978,-35.1478,24.9,85,36,2.24,BR,1683688602
413,vuktyl,63.8567,57.3094,0.54,92,99,3.2,RU,1683688602
414,ryotsu-minato,38.0833,138.4333,16.84,55,0,2.71,JP,1683688603
415,revda,56.801,59.9303,7.08,36,13,0.65,RU,1683688449
416,panguipulli,-39.6333,-72.3333,8.42,92,31,1.24,CL,1683688603
417,carbonear,47.7332,-53.2148,5.23,74,31,11.32,CA,1683688180
418,tazacorte,28.629,-17.9293,20.54,78,0,6.69,ES,1683688245
419,saint-joseph,-21.3667,55.6167,21.93,80,33,4.34,RE,1683688477
420,fonte boa,-2.4959,-66.2662,23.37,100,100,0.98,BR,1683688604
421,trairi,-3.2778,-39.2689,24.03,90,30,1.89,BR,1683688090
422,nova sintra,14.8667,-24.7167,20.26,81,2,4.9,CV,1683688227
423,vilyuysk,63.7553,121.6247,4.59,98,100,2.74,RU,1683688150
424,waingapu,-9.6567,120.2641,28.65,73,81,6.83,ID,1683688605
425,santa cruz,-17.8,-63.1667,17.7,88,40,1.54,BO,1683688179
426,harper,4.375,-7.7169,26.97,83,100,1.69,LR,1683688467
427,icano,-28.9193,-65.3282,15.15,82,0,0.41,AR,1683688606
428,fengcheng,40.4536,124.0717,23.35,27,100,3.49,CN,1683688607
429,asau,46.4333,26.4,3.51,90,71,0.97,RO,1683688607
430,enewetak,11.3474,162.3373,27.38,83,91,7.56,MH,1683688163
431,antofagasta,-23.65,-70.4,15.6,81,25,2.43,CL,1683688596
432,hasaki,35.7333,140.8333,24.05,59,3,4.71,JP,1683688056
433,sabang,5.8933,95.3214,28.96,68,92,5.34,ID,1683688608
434,sur,22.5667,59.5289,30.17,47,10,4.13,OM,1683688209
435,capo d'orlando,38.1435,14.7305,16.34,90,57,1.0,IT,1683688609
436,mahina,-17.5065,-149.489,28.75,74,75,6.17,PF,1683688609
437,leh,34.1667,77.5833,-0.68,37,0,2.41,IN,1683688609
438,salekhard,66.53,66.6019,-1.92,86,98,0.78,RU,1683688610
439,port blair,11.6667,92.75,29.59,76,96,9.86,IN,1683688610
440,den burg,53.0542,4.7972,10.56,100,100,2.06,NL,1683688612
441,quiberon,47.4841,-3.1196,13.37,84,6,4.47,FR,1683688613
442,vorkuta,67.5,64.0,-2.77,96,100,0.46,RU,1683688443
443,carnarvon,-24.8667,113.6333,21.03,84,100,1.29,AU,1683688250
444,coyhaique,-45.5752,-72.0662,5.97,87,75,3.09,CL,1683688506
445,hinton,53.4001,-117.5857,9.48,81,85,0.69,CA,1683688475
446,bogale,16.2833,95.4,33.67,50,100,3.71,MM,1683688616
447,lebu,-37.6167,-73.65,11.76,83,99,5.74,CL,1683688181
448,broken hill,-31.95,141.4333,15.63,47,0,4.32,AU,1683688159
449,ohara,35.25,140.3833,18.19,60,1,5.02,JP,1683688620
450,angren,41.0167,70.1436,20.92,29,5,3.02,UZ,1683688620
451,kumylzhenskaya,49.8809,42.5898,8.32,62,100,4.33,RU,1683688620
452,san patricio,28.017,-97.5169,26.92,87,63,7.31,US,1683688180
453,meybod,32.2501,54.0166,23.01,29,100,2.5,IR,1683688621
454,canon city,38.441,-105.2424,21.21,17,0,3.09,US,1683688621
455,atlantic,39.4668,-74.6663,12.7,71,0,0.0,US,1683688621
456,palikir - national government center,6.9248,158.1611,30.41,79,100,2.57,FM,1683688622
457,oum hadjer,13.2954,19.6966,32.9,28,81,4.49,TD,1683688622
458,taoudenni,22.6783,-3.9836,30.93,14,100,3.67,ML,1683688622
459,mtwara,-10.2667,40.1833,21.53,92,2,4.09,TZ,1683688623
460,beitbridge,-22.2167,30.0,16.21,82,0,2.5,ZW,1683688624
461,christchurch,-43.5333,172.6333,11.38,81,75,6.17,NZ,1683688624
462,thomson,33.4707,-82.5046,25.79,76,0,2.06,US,1683688625
463,kralendijk,12.15,-68.2667,26.99,78,75,8.75,BQ,1683688625
464,al mishkhab,31.8042,44.4911,25.54,32,3,7.17,IQ,1683688626
465,cowansville,45.2001,-72.7491,8.44,60,2,2.06,CA,1683688628
466,khovd,48.0056,91.6419,12.87,36,14,2.04,MN,1683688629
467,hell-ville,-13.4,48.2667,25.97,73,10,2.59,MG,1683688630
468,ntoum,0.3833,9.7833,24.99,94,100,0.74,GA,1683688630
469,petauke,-14.2426,31.3253,12.97,85,25,1.99,ZM,1683688631
470,kenora,49.8167,-94.4337,13.54,71,40,1.54,CA,1683688631
471,coquimbo,-29.9533,-71.3436,11.85,100,100,1.03,CL,1683688632
472,monticello,45.3055,-93.7941,17.14,90,100,2.06,US,1683688548
473,yen bai,21.7,104.8667,24.02,96,100,0.68,VN,1683688633
474,nuuk,64.1835,-51.7216,-0.66,93,100,3.09,GL,1683688240
475,copala,16.65,-98.9833,28.02,71,24,2.47,MX,1683688634
476,sinop,41.7711,34.8709,7.77,99,100,1.39,TR,1683688217
477,belaya kholunitsa,58.84,50.8528,6.45,71,51,2.49,RU,1683688635
478,taroa,8.7058,171.2275,26.54,85,92,8.66,MH,1683688636
479,daru,-9.0763,143.2092,26.98,90,99,7.1,PG,1683688184
480,yelizovo,53.1873,158.3805,10.08,40,75,3.0,RU,1683688243
481,piacabucu,-10.4056,-36.4344,24.35,81,4,1.99,BR,1683688639
482,sodra sandby,56.5667,16.6167,7.72,83,4,5.34,SE,1683688640
483,long beach,33.767,-118.1892,16.65,79,100,7.72,US,1683688640
484,razampeta,14.1833,79.1667,30.87,59,100,1.2,IN,1683688469
485,acarau,-2.8856,-40.12,25.24,87,26,2.85,BR,1683688204
486,munkebo,55.4618,10.5558,11.57,80,96,9.46,DK,1683688646
487,sikonge,-5.6333,32.7667,17.4,81,96,1.71,TZ,1683688646
488,coalcoman de vazquez pallares,18.7833,-103.15,21.55,72,0,1.24,MX,1683688647
489,avranches,48.6833,-1.3667,9.87,95,92,7.18,FR,1683688648
490,lamu,-2.2717,40.902,25.12,84,73,5.86,KE,1683688225
491,mastic beach,40.7668,-72.8521,12.94,74,0,2.68,US,1683688649
492,ceeldheer,3.8488,47.1806,25.73,86,98,6.14,SO,1683688545
493,langfang,39.5097,116.6947,25.72,21,89,2.99,CN,1683688649
494,alexandroupoli,40.8475,25.8744,11.9,71,40,3.6,GR,1683688642
495,tyumentsevo,53.3224,81.498,13.15,34,98,3.37,RU,1683688651
496,kolonia,50.9333,6.95,13.87,92,100,3.09,DE,1683688357
497,sao joao da barra,-21.6403,-41.0511,23.42,85,98,3.65,BR,1683688141
498,napili-honokowai,20.9708,-156.6705,27.64,78,17,7.11,US,1683688652
499,kununurra,-15.7667,128.7333,26.26,16,100,7.83,AU,1683688257
500,dawson creek,55.7666,-120.2362,16.99,51,75,1.83,CA,1683688228
501,shouguang,36.88,118.7375,24.41,19,100,3.01,CN,1683688653
502,tucupita,9.0622,-62.051,23.05,89,63,1.82,VE,1683688654
503,port hedland,-20.3167,118.5667,26.22,29,49,7.3,AU,1683688655
504,san jose del guaviare,2.5729,-72.6459,22.63,97,100,0.66,CO,1683688655
505,richards bay,-28.783,32.0377,19.19,84,99,5.52,ZA,1683688656
506,cidreira,-30.1811,-50.2056,16.07,84,0,2.58,BR,1683688194
507,ciudad lazaro cardenas,17.9583,-102.2,26.87,76,0,2.72,MX,1683688656
508,ceadir-lunga,46.055,28.8303,5.95,82,12,3.17,MD,1683688657
509,mudgee,-32.5943,149.5871,17.66,33,0,0.8,AU,1683688657
510,kuqa,41.7278,82.9364,19.06,17,1,4.3,CN,1683688657
511,mangrol,21.1167,70.1167,29.59,63,47,5.14,IN,1683688657
512,ust'-kut,56.7938,105.7672,8.96,78,99,5.76,RU,1683688658
513,sarmiento,-45.5882,-69.07,7.62,72,6,3.23,AR,1683688658
514,algodonales,36.8804,-5.4054,19.42,50,27,1.22,ES,1683688658
515,sao gabriel da cachoeira,-0.1303,-67.0892,23.34,99,100,0.99,BR,1683688659
516,torshavn,62.0097,-6.7716,8.66,93,74,2.02,FO,1683688660
517,nioki,-2.7167,17.6833,21.47,98,100,1.07,CD,1683688660
518,luanda,-8.8368,13.2343,27.0,100,75,1.54,AO,1683688212
519,twon-brass,4.3151,6.2418,28.06,79,100,4.72,NG,1683688661
520,kayangel,8.0823,134.7173,28.62,73,73,1.7,PW,1683688171
521,flying fish cove,-10.4217,105.6791,27.73,77,64,8.57,CX,1683688139
522,nguigmi,14.2495,13.1092,27.63,21,100,2.6,NE,1683688663
523,madaoua,14.073,5.96,28.17,14,100,3.24,NE,1683688664
524,kingsville,27.5159,-97.8561,25.98,81,75,4.63,US,1683688664
525,horsham,51.064,-0.3272,12.02,94,75,1.54,GB,1683688252
526,mugia,43.1041,-9.2179,11.06,80,100,3.4,ES,1683688665
527,chernyshevskiy,63.0128,112.4714,-0.06,70,63,5.21,RU,1683688665
528,santana,-0.0583,-51.1817,26.1,100,75,0.51,BR,1683688543
529,puqi,29.7167,113.8833,17.22,85,99,2.88,CN,1683688666
530,turgen,43.4006,77.5933,17.07,30,0,2.17,KZ,1683688666
531,galesong,-5.3166,119.3661,30.01,75,100,1.79,ID,1683688666
532,rio hato,8.3833,-80.1667,26.75,77,96,5.14,PA,1683688667
533,makarov,48.6333,142.8,2.95,80,91,2.85,RU,1683688667
534,tambopata,-12.7333,-69.1833,20.59,94,100,1.21,PE,1683688667
535,fort bragg,35.139,-79.006,21.94,72,75,7.72,US,1683688156
536,maragogi,-9.0122,-35.2225,24.52,86,19,2.14,BR,1683688668
537,luang namtha,20.9497,101.4011,26.01,83,100,1.03,LA,1683688668
538,manokwari,-0.8667,134.0833,28.75,74,52,2.93,ID,1683688669
539,i-n-salah,27.1935,2.4607,23.49,22,97,3.96,DZ,1683688670
540,dali,25.7,100.1833,23.85,30,8,3.45,CN,1683688671
541,genoa,44.4129,8.9573,17.41,94,75,3.09,IT,1683688671
542,aweil,8.7682,27.4002,26.44,63,42,2.81,SS,1683688672
543,puerto baquerizo moreno,-0.9,-89.6,26.17,87,47,4.33,EC,1683688675
544,weiser,44.251,-116.9693,16.11,63,14,0.45,US,1683688675
545,sandnessjoen,66.0217,12.6316,10.92,65,100,0.45,NO,1683688250
546,ulladulla,-35.35,150.4667,18.76,52,0,2.45,AU,1683688675
547,apiai,-24.5094,-48.8425,17.27,87,100,1.79,BR,1683688676
548,newnham,-41.3833,147.1333,16.17,59,96,1.79,AU,1683688676
549,mek'ele,13.4967,39.4753,18.87,67,84,0.37,ET,1683688677
550,zhongshu,24.5167,103.7667,25.67,44,56,4.33,CN,1683688677
551,cockburn town,21.4612,-71.1419,26.49,83,0,7.43,TC,1683688677
552,bridgewater,44.3835,-64.5155,6.82,72,33,2.57,CA,1683688677
553,umea,63.8284,20.2597,4.96,87,75,2.06,SE,1683688678
554,grand-bassam,5.2118,-3.7388,26.98,87,100,2.69,CI,1683688678
555,virrat,62.2476,23.78,6.64,70,100,3.07,FI,1683688679
556,kitimat,54.0524,-128.6534,19.21,55,14,2.09,CA,1683688617
557,jeanerette,29.911,-91.6635,24.05,90,96,2.13,US,1683688680
558,koszalin,54.1944,16.1722,7.04,61,0,6.65,PL,1683688680
559,antsiranana,-12.2787,49.2917,24.02,77,18,6.65,MG,1683688037
560,zhangjiakou,40.81,114.8794,21.74,21,22,2.13,CN,1683688680
561,portland,45.5234,-122.6762,17.32,61,38,0.45,US,1683688166
562,yaren,-0.5472,166.916,28.75,79,56,7.39,NR,1683688236
563,colac,-38.3333,143.5833,13.43,57,54,1.69,AU,1683688681
564,devonport,-41.1667,146.35,16.4,61,74,1.34,AU,1683688682
565,choibalsan,48.0667,114.5,21.26,14,65,5.09,MN,1683688682
566,gizo,-8.103,156.8419,29.16,76,79,3.16,SB,1683688682
567,banmankhi,25.8833,87.1833,35.1,15,0,2.54,IN,1683688683
568,moroto,2.5345,34.6666,18.48,88,52,0.62,UG,1683688683
569,rio gallegos,-51.6226,-69.2181,1.03,86,20,1.03,AR,1683688684
570,salaga,8.5508,-0.5188,27.88,66,56,3.07,GH,1683688685
571,juegang,32.3174,121.1855,19.12,39,93,2.95,CN,1683688687
572,isla mujeres,21.2311,-86.731,28.03,81,100,5.46,MX,1683688688
573,qamdo,31.1667,97.2333,5.65,28,62,4.35,CN,1683688449
574,malvan,16.0667,73.4667,29.54,71,98,2.79,IN,1683688689
575,kavaratti,10.5669,72.642,29.14,64,100,4.54,IN,1683688145
576,colonia,50.9333,6.95,13.87,92,100,3.09,DE,1683688196
577,deder,9.3167,41.45,12.88,86,85,1.44,ET,1683688690
578,chegdomyn,51.1167,133.0167,13.93,32,52,2.39,RU,1683688690
579,figuig (centre),32.1089,-1.2286,22.28,28,0,1.62,MA,1683688690
580,tual,-5.6667,132.75,26.8,86,98,7.72,ID,1683688256
581,moa,20.6569,-74.9403,25.44,85,71,2.93,CU,1683688691
582,as sulayyil,20.4607,45.5779,27.14,16,2,1.47,SA,1683688691
583,caleta de carquin,-11.0925,-77.6267,21.84,86,32,4.58,PE,1683688692
584,trondheim,63.4305,10.3951,12.03,59,100,1.55,NO,1683688693
585,alloa,56.1159,-3.79,10.91,90,39,0.45,GB,1683688693
586,limon,10.0,-83.0333,26.7,78,32,1.73,CR,1683688694
587,masterton,-40.9597,175.6575,14.38,64,56,8.81,NZ,1683688140
588,kabinda,-6.1333,24.4833,20.01,80,100,1.71,CD,1683688694
589,mount gambier,-37.8333,140.7667,16.01,55,85,1.28,AU,1683688177
590,suntar,62.1444,117.6319,5.24,92,100,3.18,RU,1683688695
591,filadelfia,39.9523,-75.1638,15.39,57,75,2.68,US,1683688536
592,ovalle,-30.5983,-71.2003,19.9,50,13,1.01,CL,1683688153
